[
    {
      "city": "Rio de Janeiro",
      "admin": "Rio de Janeiro",
      "country": "Brazil",
      "population_proper": "6320446",
      "iso2": "BR",
      "capital": "",
      "lat": "-22.9068",
      "lng": "-43.1729",
      "population": "13370000",
      "tourist_spots": [
        {
          "name": "Cristo Redentor",
          "description": "Uma das sete maravilhas do mundo moderno, uma estátua gigante de Jesus Cristo no topo do Corcovado, oferecendo vistas deslumbrantes da cidade do Rio de Janeiro.",
          "lat": "-22.9519",
          "lng": "-43.2105"
        },
        {
          "name": "Pão de Açúcar",
          "description": "Um pico de granito com uma altura de 396 metros acima do nível do mar, com um teleférico que oferece vistas panorâmicas da Baía de Guanabara e da cidade.",
          "lat": "-22.9519",
          "lng": "-43.1658"
        },
        {
          "name": "Copacabana",
          "description": "Uma das praias mais famosas do mundo, conhecida por sua calçada em forma de onda e uma vida noturna animada.",
          "lat": "-22.9719",
          "lng": "-43.1852"
        }
      ]
    },
    {
      "city": "Salvador",
      "admin": "Bahia",
      "country": "Brazil",
      "population_proper": "2711840",
      "iso2": "BR",
      "capital": "",
      "lat": "-12.9714",
      "lng": "-38.5014",
      "population": "3000000",
      "tourist_spots": [
        {
          "name": "Pelourinho",
          "description": "Um bairro histórico conhecido por suas ruas de paralelepípedos, arquitetura colonial, igrejas barrocas e vida cultural vibrante.",
          "lat": "-12.9738",
          "lng": "-38.5025"
        },
        {
          "name": "Farol da Barra",
          "description": "Um dos cartões-postais de Salvador, um farol histórico localizado em uma fortaleza, oferecendo vistas panorâmicas do Oceano Atlântico.",
          "lat": "-13.0084",
          "lng": "-38.5311"
        },
        {
          "name": "Mercado Modelo",
          "description": "Um mercado histórico com lojas de artesanato, restaurantes e bares, oferecendo uma ampla variedade de produtos locais.",
          "lat": "-12.9680",
          "lng": "-38.5087"
        }
      ]
    },
    {
      "city": "Florianópolis",
      "admin": "Santa Catarina",
      "country": "Brazil",
      "population_proper": "421240",
      "iso2": "BR",
      "capital": "",
      "lat": "-27.5954",
      "lng": "-48.5480",
      "population": "500973",
      "tourist_spots": [
        {
          "name": "Lagoa da Conceição",
          "description": "Uma lagoa cercada por morros, dunas e uma vila de pescadores, oferecendo atividades como windsurf, kitesurf, caiaque e passeios de barco.",
          "lat": "-27.6146",
          "lng": "-48.4514"
        },
        {
          "name": "Praia Mole",
          "description": "Uma praia famosa por suas ondas fortes, frequentada por surfistas, e cercada por dunas e trilhas.",
          "lat": "-27.6297",
          "lng": "-48.4445"
        },
        {
          "name": "Mercado Público de Florianópolis",
          "description": "Um mercado público histórico com barracas de comida, lojas de artesanato, apresentações musicais e uma variedade de produtos regionais.",
          "lat": "-27.5986",
          "lng": "-48.5510"
        }
      ]
    }
  ]